lat,lon,name
40.7308619,-73.9871558,Olivia Palermo
-33.8548157,151.2164539,Hugh Jackman
38.8950092,-77.0365625,Donald J. Trump
55.7504461,37.6174943,ùïúùï´ùïúùïß
40.7308619,-73.9871558,Pasha [GEEK SPUTNIK]
55.7504461,37.6174943,Roy Droider
49.4871968,31.2718321,University And |\/\e
55.7504461,37.6174943,–í–∞–ª–µ—Ä–∏–π –ò—Å—Ç–∏—à–µ–≤
55.7504461,37.6174943,–í–µ–¥–µ–Ω—Å–∫–∏–π
49.4871968,31.2718321,–û–∫–µ–∞–Ω –ï–ª—å–∑–∏
49.2783459,23.5064459,–ê–Ω–∞—Å—Ç–∞—Å–∏—è –î–µ–Ω–∏—Å—é–∫
37.3228934,-122.0322895,Wylsacom
